{
"type": "FeatureCollection",
"name": "stations",
"features": [
{ "type": "Feature", "properties": { "Name": "Mack Ave", "TypCat": "Town Center", "DestOverla": "Station Area" }, "geometry": { "type": "Point", "coordinates": [ -83.057932499999936, 42.347443800000065, 0.0 ] } },
{ "type": "Feature", "properties": { "Name": "Warren Ave", "TypCat": "Town Center", "DestOverla": "Station Area" }, "geometry": { "type": "Point", "coordinates": [ -83.064337599999988, 42.356863300000043, 0.0 ] } },
{ "type": "Feature", "properties": { "Name": "Baltimore Ave", "TypCat": "Core City", "DestOverla": "Station Area and Satellite" }, "geometry": { "type": "Point", "coordinates": [ -83.072076799999934, 42.368429, 0.0 ] } },
{ "type": "Feature", "properties": { "Name": "Trowbridge St", "TypCat": "Neighborhood Center", "DestOverla": "Satellite" }, "geometry": { "type": "Point", "coordinates": [ -83.086174699999958, 42.389418900000067, 0.0 ] } },
{ "type": "Feature", "properties": { "Name": "Manchester Pkwy", "TypCat": "Town Center", "DestOverla": "Station Area" }, "geometry": { "type": "Point", "coordinates": [ -83.098102899999958, 42.407066600000064, 0.0 ] } },
{ "type": "Feature", "properties": { "Name": "McNichols Rd", "TypCat": "Neighborhood Center", "DestOverla": "Satellite" }, "geometry": { "type": "Point", "coordinates": [ -83.105280499999935, 42.417748200000062, 0.0 ] } },
{ "type": "Feature", "properties": { "Name": "7 Mile Rd", "TypCat": "Neighborhood Center", "DestOverla": null }, "geometry": { "type": "Point", "coordinates": [ -83.115226599999971, 42.432136600000035, 0.0 ] } },
{ "type": "Feature", "properties": { "Name": "State Fair Transit Center", "TypCat": "Town Center", "DestOverla": "Station Area" }, "geometry": { "type": "Point", "coordinates": [ -83.121266599999956, 42.441343600000039, 0.0 ] } },
{ "type": "Feature", "properties": { "Name": "9 Mile Rd", "TypCat": "Town Center", "DestOverla": "Station Area" }, "geometry": { "type": "Point", "coordinates": [ -83.134587199999942, 42.460590800000034, 0.0 ] } },
{ "type": "Feature", "properties": { "Name": "10 Mile Rd \/ Detroit Zoo", "TypCat": "Town Center", "DestOverla": "Station Area" }, "geometry": { "type": "Point", "coordinates": [ -83.1462706, 42.47611420000004, 0.0 ] } },
{ "type": "Feature", "properties": { "Name": "11 Mile Rd", "TypCat": "Neighborhood Center", "DestOverla": "Satellite" }, "geometry": { "type": "Point", "coordinates": [ -83.158818199999985, 42.489445400000079, 0.0 ] } },
{ "type": "Feature", "properties": { "Name": "Catalpa Dr", "TypCat": "Neighborhood Center", "DestOverla": "Satellite" }, "geometry": { "type": "Point", "coordinates": [ -83.165641599999958, 42.496503400000051, 0.0 ] } },
{ "type": "Feature", "properties": { "Name": "12 Mile Rd", "TypCat": "Neighborhood Center", "DestOverla": "Satellite" }, "geometry": { "type": "Point", "coordinates": [ -83.172355499999981, 42.50355090000005, 0.0 ] } },
{ "type": "Feature", "properties": { "Name": "13 Mile Rd", "TypCat": "Neighborhood Center", "DestOverla": "Station Area" }, "geometry": { "type": "Point", "coordinates": [ -83.185331499999961, 42.516916500000036, 0.0 ] } },
{ "type": "Feature", "properties": { "Name": "14 Mile Rd", "TypCat": "Neighborhood Center", "DestOverla": null }, "geometry": { "type": "Point", "coordinates": [ -83.199885199999983, 42.532064, 0.0 ] } },
{ "type": "Feature", "properties": { "Name": "Maple Rd", "TypCat": "Core City", "DestOverla": "Station Area and Satellite" }, "geometry": { "type": "Point", "coordinates": [ -83.211300599999959, 42.546799200000066, 0.0 ] } },
{ "type": "Feature", "properties": { "Name": "Long Lake Rd", "TypCat": "Neighborhood Center", "DestOverla": "Satellite" }, "geometry": { "type": "Point", "coordinates": [ -83.245411099999956, 42.583830200000079, 0.0 ] } },
{ "type": "Feature", "properties": { "Name": "Square Lake Rd", "TypCat": "Neighborhood Center", "DestOverla": null }, "geometry": { "type": "Point", "coordinates": [ -83.264281399999959, 42.603738800000031, 0.0 ] } },
{ "type": "Feature", "properties": { "Name": "St. Joseph Hospital", "TypCat": "Neighborhood Center", "DestOverla": "Station Area and Satellite" }, "geometry": { "type": "Point", "coordinates": [ -83.274508399999945, 42.614522800000032, 0.0 ] } },
{ "type": "Feature", "properties": { "Name": "Downtown Pontiac", "TypCat": "Core City", "DestOverla": "Station Area" }, "geometry": { "type": "Point", "coordinates": [ -83.290894099999946, 42.635841, 0.0 ] } }
]
}
